City_ID,City,State,Country,Lat,Lng
1,New York City,New York,US,40.7128,74.006
2,San Franciso,California,US,37.7749,122.4194
3,Washington,DC,US,38.9072,77.0369
4,Los Angeles,California,US,34.0522,118.2432
5,Boston,Massachusetts,US,42.3601,71.0589
6,Chicago,Illinois,US,41.8781,87.6298